{
  "source": "stormrider.surf/nicaragua",
  "extracted": "2026-04-16",
  "total_spots": 29,
  "notes": [
    "Coordinates extracted from JSON-LD structured data embedded in each Stormrider spot page (same data Mapbox uses to place pins).",
    "Punta Miramar (#21) full description is paywalled; coords still available.",
    "Dominant pattern across Nicaragua: NE offshore trades, S–SW swell window, best season Dec–April (dry).",
    "July (trip target) = rainy season with more variable winds but solid SW swells."
  ],
  "spots": [
    {"n":1,"name":"Popoyo","region":"South","lat":11.458120,"lon":-86.111567,"rating":"Hotspot","ability":"Intermediate","crowds":"Often","wave_length_m":"200-500","consistency":"High","wave_type":"Submerged Reef","bottom":"Uneven Reef & Sand","size_ft":"2-20","swell_window":"S-SW","offshore_wind":"NE","tide":"All","pollution":"None","parking":"Free Roadside","facilities":"Surf School","url":"https://stormrider.surf/break/popoyo"},
    {"n":2,"name":"Colorado","region":"South","lat":11.405374,"lon":-86.048586,"rating":"Hotspot","ability":"Intermediate","crowds":"Often","wave_length_m":"0-50","consistency":"Medium","wave_type":"Rivermouth","bottom":"Sand","size_ft":"2-8","swell_window":"S-W","offshore_wind":"NE","tide":"All","pollution":"River","parking":"Restricted","facilities":"None","url":"https://stormrider.surf/break/colorado"},
    {"n":3,"name":"Panga Drops","region":"South","lat":11.407786,"lon":-86.058230,"ability":"Intermediate","crowds":"Sometimes","wave_length_m":"100-200","consistency":"High","wave_type":"Submerged Reef","bottom":"Uneven Reef","size_ft":"3-18","swell_window":"S-W","offshore_wind":"NE","tide":"All","pollution":"None","parking":"Restricted","facilities":"None","url":"https://stormrider.surf/break/panga-drops"},
    {"n":4,"name":"Playa Santana","region":"South","lat":11.444013,"lon":-86.089810,"ability":"Intermediate","crowds":"Always","wave_length_m":"0-50","consistency":"High","wave_type":"Beachbreak","bottom":"Sand","size_ft":"1-12","swell_window":"S-W","offshore_wind":"NE","tide":"All","pollution":"None","parking":"Restricted","facilities":"None","url":"https://stormrider.surf/break/playa-santana"},
    {"n":5,"name":"Manzanillo","region":"South","lat":11.365639,"lon":-86.010144,"ability":"Intermediate","crowds":"Often","wave_length_m":"200-500","consistency":"Medium","wave_type":"Point Break","bottom":"Uneven Reef","size_ft":"2-10","swell_window":"S-SW","offshore_wind":"NE","tide":"Mid only","pollution":"None","parking":"Restricted","facilities":"None","url":"https://stormrider.surf/break/manzanillo"},
    {"n":6,"name":"Playa Rosada","region":"South","lat":11.433898,"lon":-86.084362,"ability":"Expert","crowds":"Sometimes","wave_length_m":"50-100","consistency":"Medium","wave_type":"Point Break","bottom":"Uneven Reef & Sand","size_ft":"3-8","swell_window":"S-SW","offshore_wind":"NE","tide":"All","pollution":"None","parking":"Restricted","facilities":"None","url":"https://stormrider.surf/break/playa-rosada"},
    {"n":7,"name":"Playa Maderas","region":"South","lat":11.290682,"lon":-85.909902,"ability":"Beginner","crowds":"Often","wave_length_m":"50-100","consistency":"High","wave_type":"Beachbreak","bottom":"Sand","size_ft":"2-10","swell_window":"S-SW","offshore_wind":"NE","tide":"All","pollution":"River","parking":"Free Roadside","facilities":"Camping, Surf School","url":"https://stormrider.surf/break/playa-maderas"},
    {"n":8,"name":"El Remanso","region":"South","lat":11.220503,"lon":-85.849452,"ability":"Beginner","crowds":"Sometimes","wave_length_m":"0-50","consistency":"Medium","wave_type":"Beachbreak","bottom":"Sand","size_ft":"2-6","swell_window":"S-SW","offshore_wind":"NE","tide":"All","pollution":"None","parking":"Free Roadside","facilities":"None","url":"https://stormrider.surf/break/el-remanso"},
    {"n":9,"name":"Tamarind","region":"South","lat":11.214659,"lon":-85.846936,"ability":"Intermediate","crowds":"Sometimes","wave_length_m":"50-100","consistency":"Medium","wave_type":"Point Break","bottom":"Uneven Reef & Sand","size_ft":"3-6","swell_window":"S-SW","offshore_wind":"NE","tide":"All","pollution":"None","parking":"Free Roadside","facilities":"None","url":"https://stormrider.surf/break/tamarind"},
    {"n":10,"name":"El Yanke","region":"South","lat":11.180703,"lon":-85.818291,"ability":"Beginner","crowds":"Sometimes","wave_length_m":"0-50","consistency":"Medium","wave_type":"Beachbreak","bottom":"Sand","size_ft":"2-6","swell_window":"S-W","offshore_wind":"NE","tide":"All","pollution":"None","parking":"Free Roadside","facilities":"None","url":"https://stormrider.surf/break/el-yanke"},
    {"n":11,"name":"El Coco","region":"South","lat":11.157953,"lon":-85.804245,"ability":"Beginner","crowds":"Sometimes","wave_length_m":"0-50","consistency":"Medium","wave_type":"Beachbreak","bottom":"Sand","size_ft":"2-6","swell_window":"S-SW","offshore_wind":"NE","tide":"Mid-High","pollution":"None","parking":"Free Roadside","facilities":"None","url":"https://stormrider.surf/break/el-coco"},
    {"n":12,"name":"Sally Ann's","region":"South","lat":11.131363,"lon":-85.800260,"ability":"Expert","crowds":"Sometimes","wave_length_m":"200-500","consistency":"Low","wave_type":"Point Break","bottom":"Uneven Reef & Sand","size_ft":"4-10","swell_window":"S-SW","offshore_wind":"SE","tide":"Mid-High","pollution":"None","parking":"None","facilities":"None","url":"https://stormrider.surf/break/sally-anns"},
    {"n":13,"name":"Hemorrhoids","region":"Central","lat":11.924235,"lon":-86.619570,"ability":"Intermediate","crowds":"Often","wave_length_m":"50-100","consistency":"Medium","wave_type":"Submerged Reef","bottom":"Uneven Reef","size_ft":"3-12","swell_window":"S-W","offshore_wind":"E","tide":"Mid-High","pollution":"River, Residential","parking":"Fee Roadside","facilities":"None","url":"https://stormrider.surf/break/hemorrhoids"},
    {"n":14,"name":"Playa Ausuchillas","region":"Central","lat":11.932570,"lon":-86.620096,"ability":"Beginner","crowds":"Sometimes","wave_length_m":"50-100","consistency":"High","wave_type":"Beachbreak","bottom":"Sand","size_ft":"1-12","swell_window":"S-W","offshore_wind":"E","tide":"All","pollution":"None","parking":"Fee Roadside","facilities":"None","url":"https://stormrider.surf/break/playa-ausuchillas"},
    {"n":15,"name":"Chiggas","region":"Central","lat":11.905297,"lon":-86.619170,"ability":"Intermediate","crowds":"Sometimes","wave_length_m":"100-200","consistency":"High","wave_type":"Submerged Reef","bottom":"Uneven Reef","size_ft":"3-15","swell_window":"S-W","offshore_wind":"NE","tide":"Mid-High","pollution":"River, Residential","parking":"Fee Roadside","facilities":"None","url":"https://stormrider.surf/break/chiggas"},
    {"n":16,"name":"El Transito","region":"Central","lat":12.053120,"lon":-86.707388,"ability":"Beginner","crowds":"Rarely","wave_length_m":"0-50","consistency":"High","wave_type":"Beachbreak","bottom":"Uneven Reef & Sand","size_ft":"1-6","swell_window":"S-W","offshore_wind":"NE","tide":"All","pollution":"None","parking":"Free Roadside","facilities":"None","url":"https://stormrider.surf/break/el-transito"},
    {"n":17,"name":"Montelimar","region":"Central","lat":11.802237,"lon":-86.521415,"ability":"Intermediate","crowds":"Rarely","wave_length_m":"0-50","consistency":"Medium","wave_type":"Beachbreak","bottom":"Uneven Reef & Sand","size_ft":"1-6","swell_window":"S-W","offshore_wind":"NE","tide":"Mid-High","pollution":"River","parking":"None","facilities":"None","url":"https://stormrider.surf/break/montelimar"},
    {"n":18,"name":"Masachapa","region":"Central","lat":11.784377,"lon":-86.522106,"ability":"Intermediate","crowds":"Rarely","wave_length_m":"50-100","consistency":"Low","wave_type":"Submerged Reef","bottom":"Uneven Reef & Sand","size_ft":"3-8","swell_window":"SW-W","offshore_wind":"E","tide":"Low-Mid","pollution":"None","parking":"None","facilities":"None","url":"https://stormrider.surf/break/masachapa"},
    {"n":19,"name":"Pochomil","region":"Central","lat":11.752322,"lon":-86.487088,"ability":"Intermediate","crowds":"Rarely","wave_length_m":"200-500","consistency":"Medium","wave_type":"Submerged Reef","bottom":"Uneven Reef & Sand","size_ft":"1-10","swell_window":"S-SW","offshore_wind":"NE","tide":"All","pollution":"River","parking":"Free Roadside","facilities":"None","url":"https://stormrider.surf/break/pochomil"},
    {"n":20,"name":"Shacks - Miramar","region":"Central","lat":12.164726,"lon":-86.760827,"ability":"Intermediate","crowds":"Sometimes","wave_length_m":"0-50","consistency":"Medium","wave_type":"Submerged Reef","bottom":"Uneven Reef & Sand","size_ft":"4-8","swell_window":"S-W","offshore_wind":"NE","tide":"Mid only","pollution":"None","parking":"Free Roadside","facilities":"Camping, Surf School","url":"https://stormrider.surf/break/shacks-miramar"},
    {"n":21,"name":"Punta Miramar","region":"Central","lat":12.168997,"lon":-86.763407,"ability":"Paywalled","crowds":null,"wave_length_m":null,"consistency":null,"wave_type":null,"bottom":null,"size_ft":null,"swell_window":null,"offshore_wind":null,"tide":null,"pollution":null,"parking":null,"facilities":null,"url":"https://stormrider.surf/break/punta-miramar","note":"Full content paywalled. From neighbors: consistently good lefts, fast inside runners and tubes."},
    {"n":22,"name":"Pipes - Miramar","region":"Central","lat":12.171291,"lon":-86.764239,"ability":"Intermediate","crowds":"Sometimes","wave_length_m":"0-50","consistency":"Medium","wave_type":"Beachbreak","bottom":"Uneven Reef & Sand","size_ft":"2-8","swell_window":"S-W","offshore_wind":"NE","tide":"All","pollution":"Residential","parking":"Free Roadside","facilities":"Camping, Surf School","url":"https://stormrider.surf/break/pipes-miramar"},
    {"n":23,"name":"Puerto Sandino","region":"Central","lat":12.189034,"lon":-86.775136,"ability":"Intermediate","crowds":"Often","wave_length_m":"200-500","consistency":"High","wave_type":"Submerged Reef","bottom":"Uneven Reef & Sand","size_ft":"3-12","swell_window":"S-W","offshore_wind":"NE","tide":"All","pollution":"River","parking":"Restricted","facilities":"None","url":"https://stormrider.surf/break/puerto-sandino"},
    {"n":24,"name":"Casares","region":"Central","lat":11.646663,"lon":-86.360652,"ability":"Intermediate","crowds":"Rarely","wave_length_m":"50-100","consistency":"Medium","wave_type":"Submerged Reef","bottom":"Uneven Reef & Sand","size_ft":"3-10","swell_window":"S-SW","offshore_wind":"NE","tide":"All","pollution":"None","parking":"Free Roadside","facilities":"None","url":"https://stormrider.surf/break/casares"},
    {"n":25,"name":"Salinas Grandes","region":"Central","lat":12.262410,"lon":-86.869567,"ability":"Beginner","crowds":"Rarely","wave_length_m":"0-50","consistency":"Medium","wave_type":"Beachbreak","bottom":"Sand","size_ft":"1-8","swell_window":"S-NW","offshore_wind":"NE","tide":"All","pollution":"None","parking":"Free Roadside","facilities":"Camping, Surf School","url":"https://stormrider.surf/break/salinas-grandes"},
    {"n":26,"name":"Playgrounds - Veracruz de Acayo","region":"Central","lat":11.555419,"lon":-86.220714,"ability":"Intermediate","crowds":"Sometimes","wave_length_m":"50-100","consistency":"High","wave_type":"Submerged Reef","bottom":"Boulders","size_ft":"3-12","swell_window":"S-SW","offshore_wind":"NE","tide":"All","pollution":"River","parking":"Restricted","facilities":"None","url":"https://stormrider.surf/break/playgrounds-veracruz-de-acayo"},
    {"n":27,"name":"Lance's Left - El Astillero","region":"Central","lat":11.522593,"lon":-86.178598,"ability":"Intermediate","crowds":"Sometimes","wave_length_m":"200-500","consistency":"High","wave_type":"Point Break","bottom":"Uneven Reef","size_ft":"3-15","swell_window":"S-W","offshore_wind":"NE","tide":"All","pollution":"River","parking":"Restricted","facilities":"None","url":"https://stormrider.surf/break/lances-left-el-astillero"},
    {"n":28,"name":"El Astillero","region":"Central","lat":11.518054,"lon":-86.173693,"ability":"Intermediate","crowds":"Rarely","wave_length_m":"0-50","consistency":"Medium","wave_type":"Beachbreak","bottom":"Sand","size_ft":"2-10","swell_window":"S-SW","offshore_wind":"NE","tide":"All","pollution":"River","parking":"Free Roadside","facilities":"None","url":"https://stormrider.surf/break/el-astillero"},
    {"n":29,"name":"Poneloya","region":"Central","lat":12.369045,"lon":-87.036504,"ability":"Beginner","crowds":"Rarely","wave_length_m":"0-50","consistency":"Medium","wave_type":"Beachbreak","bottom":"Sand","size_ft":"1-8","swell_window":"S-W","offshore_wind":"NE","tide":"All","pollution":"None","parking":"Free Roadside","facilities":"None","url":"https://stormrider.surf/break/poneloya"}
  ],
  "clusters": [
    {"name":"Miramar headland","spots":[20,21,22],"max_distance_m":700},
    {"name":"El Astillero","spots":[27,28],"max_distance_m":450},
    {"name":"Gran Pacifica / San Diego","spots":[13,14,15],"max_distance_m":1000}
  ]
}
